{
  "restaurants": [
    {
      "restaurant_id": 1,
      "restaurant_name": "Taco House",
      "open_hours": "Monday to Saturday - 10am to 11pm",
      "lat": 44.986657,
      "lng": -93.258139,
      "icon": "/icons/burger.png"
    },
    {
      "restaurant_id": 2,
      "restaurant_name": "Canadian Bacon",
      "open_hours": "Tuesday to Saturday - 9am to 9pm",
      "lat": 44.946346,
      "lng": -93.305101, 
      "icon": "/icons/burger.png"
    },
    {
      "restaurant_id": 3,
      "restaurant_name": "Soulfu",
      "open_hours": "Tuesday to Saturday - 9am to 9pm",
      "lat": 44.97482,
      "lng": -93.275941,
      "icon": "/icons/burger.png"
    },
    {
      "restaurant_id": 4,
      "restaurant_name": "Party Fowl",
      "open_hours": "Tuesday to Saturday - 9am to 9pm",
      "lat": 44.978471,
      "lng": -93.275941,
      "icon": "/icons/burger.png"
    },
    {
      "restaurant_id": 5,
      "restaurant_name": "9021PHO",
      "open_hours": "Tuesday to Saturday - 9am to 9pm",
      "lat": 44.977032,
      "lng": -93.272362,
      "icon": "/icons/burger.png"
    },
    {
      "restaurant_id": 6,
      "restaurant_name": "Tequila Mockingbird",
      "open_hours": "Tuesday to Saturday - 9am to 9pm",
      "lat": 44.969191,
      "lng": -93.247046,
      "icon": "/icons/burger.png"
    },
    {
      "restaurant_id": 7,
      "restaurant_name": "Vincent Van Doughnut",
      "open_hours": "Tuesday to Saturday - 9am to 9pm",
      "lat": 44.968174,
      "lng": -93.276598,
      "icon": "/icons/burger.png"
    },
    {
      "restaurant_id": 8,
      "restaurant_name": "Nacho Daddy",
      "open_hours": "Tuesday to Saturday - 9am to 9pm",
      "lat": 44.96548,
      "lng": -93.298057,
      "icon": "/icons/burger.png"
    },
    {
      "restaurant_id": 9,
      "restaurant_name": "Lord of the Wings",
      "open_hours": "Tuesday to Saturday - 9am to 9pm",
      "lat": 44.952147,
      "lng": -93.293456,
      "icon": "/icons/burger.png"
    },
    {
      "restaurant_id": 10,
      "restaurant_name": "Pastabilities",
      "open_hours": "Tuesday to Saturday - 9am to 9pm",
      "lat": 44.968053,
      "lng": -93.290599,
      "icon": "/icons/burger.png"
    }
  ]
}
